Altitude,Velocity,Yaw,Pitch,Roll,Wind_Speed,Temperature,Obstacle_Distance,Task_Type,Task_Completion_Time,Task_Success,Movement Pattern,Weather,Performance Target,Fatal_Errors
350.6370044372841,44.10189684983882,198.1914050146412,-35.44075551703894,0.5087421184815639,12.18935526733244,5.965844001068701,62.377219065085285,Tracking,577.8638268527947,1.0,Linear,Windy,Low Performance,8
470.5530426920347,47.51860925735577,146.65158871661964,24.828952902272377,-16.0258896810311,16.411528786676996,2.6101201079665444,18.90172827464972,Tracking,404.9191983961885,0.0,Linear,Foggy,High Performance,2
107.6464377719056,13.404139444791417,187.6957277305468,27.716159529811705,20.7197985413236,5.704886846135331,37.79593999810221,46.943486215404384,Object Detection,517.4053361900997,1.0,Linear,Clear,Low Performance,14
290.73738732712684,25.423903700533334,322.76687704884364,24.098815594290382,13.62976858440831,4.784221760684375,36.16497541349647,72.032291647856,Tracking,351.6354862534528,1.0,Linear,Foggy,Low Performance,13
375.08881697222427,12.841395561760084,70.66594883198414,-34.7430701592683,28.845670463331096,15.739515987624015,12.865830494641015,52.94357405412765,Surveillance,283.7094976985366,0.0,Random,Clear,High Performance,7
389.0827830792914,18.431724062001145,8.123224213925004,12.951716136098824,-20.658444134644025,1.1276370770646316,32.30969330771867,39.54890761835702,Recon,587.6787695612978,1.0,Linear,Rainy,High Performance,2
377.0129726148432,19.17463108150689,310.1993584916763,30.08923161744588,-16.460125016876695,7.387652951651702,12.6161738817148,32.233845808094365,Object Detection,374.3455402427115,1.0,Circular,Clear,Low Performance,9
153.77405176324874,28.764288441903147,207.76214965964635,6.961806109770095,-17.29211100710984,10.116184451846594,11.21945090362552,61.03938666440536,Surveillance,528.1117347115567,1.0,Circular,Rainy,Moderate Performance,9
219.75823534867249,20.742486698145704,320.63704396626326,13.176663770528007,17.552386057280202,11.206973487006469,-2.1618526200352672,93.91086983102406,Tracking,574.7778940377966,1.0,Linear,Foggy,Low Performance,11
243.4862101668054,14.039124272710444,214.9002804287421,-3.747286851632445,-18.78556221299291,14.572303135855538,11.320302824598642,67.17448404774834,Tracking,424.691498584676,1.0,Linear,Rainy,Low Performance,11
421.774883071802,16.699643563764308,291.6579923854929,2.583658789564737,-26.00041021060164,7.096914468613164,16.87084692999035,7.474590363631551,Recon,356.42688640008447,0.0,Circular,Foggy,Low Performance,10
211.5039489658212,15.891022542083636,154.68241080785327,-41.90608274834473,29.91364839513772,12.253686893492144,-8.874783628565677,46.06849734821338,Surveillance,61.89585949175134,1.0,Circular,Windy,Low Performance,15
184.2819855468813,48.923071916491935,269.94957526377675,12.506671977595616,-28.51096731329105,11.707508455819127,12.20565025877032,89.08241315106275,Object Detection,81.61060599906324,1.0,Random,Windy,High Performance,2
482.97920761523847,40.37170027673895,328.6949280803482,-37.66975083979568,20.11464360953194,10.952322013074944,29.067810919760014,9.446242580108688,Surveillance,168.4596566676028,0.0,Circular,Windy,Low Performance,13
103.54531404538756,48.71045861078248,205.96426693999427,-5.848686509379895,-8.077989506960833,12.809665862844245,24.00230281871349,98.88757121375431,Tracking,160.44455320223744,1.0,Circular,Rainy,Moderate Performance,9
499.12834227279126,27.589619460316342,65.08265420245664,-18.66104120993329,20.49692758546892,5.188983421361526,21.75784944319675,94.90693936454213,Object Detection,197.56974940791648,0.0,Linear,Windy,High Performance,5
370.7285195429582,21.134739266506266,96.76714141087136,4.088515519054177,3.277229472668701,1.6929750716925795,35.477771421860126,7.827448072987586,Tracking,224.66470435673685,0.0,Circular,Clear,Moderate Performance,8
431.3877197796468,41.93172788836747,71.51204768306609,-32.99252980291136,24.097873769181604,2.3854334407948685,-9.0983995087385,93.3413320449555,Tracking,254.43536651739325,1.0,Random,Foggy,Moderate Performance,6
217.84775853847725,23.05015672164587,88.86852993446385,17.247906177598637,25.5715791848776,4.491647653078021,17.852379309611706,36.31325902594622,Surveillance,287.0903526371933,1.0,Circular,Foggy,Moderate Performance,7
105.726111066824,21.97533494821393,110.3095617663731,26.55103832356233,-29.45410912315344,10.003958710455706,29.36744242048536,84.47091670758626,Recon,113.38782276624792,0.0,Linear,Clear,Moderate Performance,6
395.147807424612,19.300239688313248,199.84816323114785,-30.29809952311592,-25.475269440432704,16.808855010920404,17.06676913506336,41.83833377132715,Tracking,82.8754432545023,0.0,Linear,Rainy,High Performance,7
433.6578388002703,15.187159128969414,211.6769866069798,-35.61182213833061,-14.978476225748672,14.025866841767682,6.194777629018958,44.08551127025159,Surveillance,423.9300024994327,1.0,Circular,Rainy,High Performance,1
396.19045278140766,20.25852244067064,153.53990900707,-31.90360654913768,10.158924981810102,15.780812084040942,-3.1874717454011066,63.42430909775426,Object Detection,350.160805415262,0.0,Linear,Foggy,Moderate Performance,6
157.14011492033544,24.21278993895551,221.55148073550075,33.94148057086515,23.29633179069036,7.019512478521827,34.37815359080957,77.44774192759833,Recon,299.8378691988646,0.0,Random,Windy,Moderate Performance,5
401.3711689027877,36.95976832582922,29.366973220091733,2.5370335580720536,-2.403482922362233,8.093074832971004,13.538119619380147,3.378915094824864,Tracking,402.5975682309103,0.0,Random,Rainy,High Performance,1
407.5691128430564,12.502593688778065,31.60376534093759,-2.946510359324769,6.418386976455928,7.873637719812256,33.90575984928507,59.31559955271343,Tracking,506.9468798899119,1.0,Circular,Rainy,High Performance,3
363.41620626802194,18.42027758661372,61.85860572875704,-35.39593628078811,-18.69000883226633,3.8374636880900304,19.292606121658416,18.673299409737098,Object Detection,290.95417092275045,0.0,Circular,Clear,High Performance,6
406.4463731182345,42.360945611667056,186.5078992945241,13.460040608126562,18.29801003290112,1.2243331628714405,23.70960583075004,34.594951786320294,Surveillance,406.2045111280689,1.0,Circular,Clear,Low Performance,11
438.3685758710928,15.87687694335083,77.03808433139288,33.11996327055809,28.03968668120818,11.818321856544536,30.2130577189225,34.79686661552165,Tracking,574.9290008709858,1.0,Linear,Windy,Low Performance,9
345.4416456949834,23.70580586090086,101.98238525732783,29.53672823911077,-13.884064025124154,19.784333668411723,22.95777723000672,46.90603402211536,Object Detection,513.3972277652429,0.0,Random,Rainy,Low Performance,8
135.44188558787164,44.5863568743256,144.11262102227786,11.344923808272114,-0.3104429039672212,3.3365940990052567,9.902742033946886,33.41364118761734,Tracking,290.0404376713011,1.0,Random,Rainy,Moderate Performance,6
295.0511238668844,16.197012445737705,292.27180464373674,-38.22491550134937,-24.83303336961757,0.9336963979854752,15.681669196432548,10.736111845066777,Surveillance,408.1470924199612,1.0,Linear,Clear,Low Performance,13
131.059733868642,13.309473424727596,4.990368928629643,-34.88426755415883,3.548199387778105,15.59063363647866,30.15227623379399,14.562873852545144,Recon,155.61829783460746,0.0,Random,Rainy,Moderate Performance,8
263.0172124129723,29.38151980320044,233.7763752851841,-40.56219116011578,0.1670065108008316,5.051720133694484,8.68251481864921,3.343798556109767,Surveillance,362.6819798433485,0.0,Circular,Foggy,Moderate Performance,10
262.84259565025104,22.096780451141456,240.7955511746468,-21.82687051567776,-21.333810950695344,16.59287610705857,9.406072838424857,47.02490853287543,Surveillance,589.9172772147591,0.0,Circular,Clear,Low Performance,11
126.40393765609664,32.53633457935416,287.5160809283892,-32.790467955566,-3.476027212915497,14.078733340690308,-5.215494197099942,95.44476948529883,Surveillance,339.890162209362,1.0,Circular,Windy,Moderate Performance,9
239.52821358779173,42.15219561933901,335.7910580617128,-21.59567637728095,-9.953720874806203,18.91347074101609,35.72922176108739,11.567522364811657,Object Detection,560.9246815626796,0.0,Random,Clear,Low Performance,11
144.39923951652594,15.485939526109728,7.249625621744338,-10.344774985293448,1.3098525183113594,8.178544715133441,-5.448184252727914,94.6264493003082,Tracking,279.9608570717608,1.0,Circular,Rainy,Low Performance,15
423.29408400368885,33.2279633821714,55.36213398475783,39.86845056640222,5.139260125727951,13.239396789012684,22.4104588724278,73.33615147320936,Recon,599.3762066797009,1.0,Linear,Windy,High Performance,3
479.0752103857883,30.22035041559456,319.0216658601575,9.933845380352288,-29.490265283567428,9.297095616265414,10.659723940139884,63.74988029341632,Object Detection,372.7788190228813,1.0,Linear,Clear,Low Performance,13
128.92659010317544,15.763151440527984,165.06668238732553,30.147640711466607,15.66035897697332,12.61177394617087,10.280969512772115,64.52777553235629,Surveillance,82.82525688740466,1.0,Random,Foggy,High Performance,1
482.0460829166806,34.9599394211593,203.25263001604685,18.93163506410989,12.780857511704449,8.991978120154746,23.9775918286342,82.67276483962821,Recon,376.8475902133496,1.0,Linear,Foggy,Low Performance,15
309.03063973469807,20.945616714430862,238.68979334033307,-34.874718252603145,-8.022816827608668,3.7726449284814967,-6.645313368506064,10.691986437982138,Surveillance,208.2692556669822,0.0,Linear,Clear,Low Performance,12
219.8262711815496,29.5133727417605,244.46397761842945,21.23283657365539,-26.823843865870906,10.157948320067618,19.68528914757173,50.47543235655417,Surveillance,77.53991389938315,1.0,Random,Foggy,High Performance,3
130.7448301104654,13.290892971082474,335.42654519394296,-20.2411006596788,15.29595238710302,10.571684028748846,28.60158929861774,69.70911382607585,Surveillance,503.2607845351182,1.0,Circular,Foggy,High Performance,2
300.24970722816715,28.383362288544923,358.90179026820107,12.519706229523573,27.310509628687942,16.21207696520322,31.41063789432971,58.682044507356366,Recon,208.8940039696082,0.0,Circular,Foggy,Low Performance,15
417.80621779629945,22.258538721712814,259.2566859351385,-14.313422372131033,-15.590904238679148,14.710414115871624,-1.4734805303112353,83.27790710232946,Tracking,490.1362191851092,0.0,Circular,Windy,Moderate Performance,10
382.8345909066792,42.895248447414176,103.39963531385428,44.79050369381933,-10.588523175777729,13.275832478828882,34.87095250390868,7.22717090113515,Surveillance,215.63749479616817,0.0,Random,Foggy,High Performance,7
120.09040458558952,12.279149079894731,316.7108648259637,-21.28036684529,-18.971226631091103,2.2677419110514507,22.807304592372112,69.0701039499166,Tracking,164.93623109183812,0.0,Linear,Foggy,Moderate Performance,5
129.1607341471614,26.7442909967332,17.719529234674177,-19.87825763031573,4.61616740069038,14.4123258132743,34.09274004103414,53.40277303847177,Recon,585.9252100163908,1.0,Circular,Foggy,Moderate Performance,8
261.1493130530548,28.33725696525752,83.18910703481863,38.76050300061584,-20.709516321152705,10.006103127090295,14.264035855509912,37.91608639799434,Recon,255.28847698771057,0.0,Circular,Windy,Moderate Performance,5
218.1161976191773,39.000243051964745,323.0588582869374,-42.78200358273096,-8.628363392317233,17.881990722123184,17.1016672548601,34.027498223403086,Surveillance,384.74315417930666,0.0,Random,Clear,High Performance,7
192.9537292224192,32.97150300360844,92.22894519816778,17.70200890858772,11.820780836055777,18.39741868261085,35.95191385143356,62.083263277419285,Tracking,389.3900061198146,0.0,Circular,Rainy,Moderate Performance,6
212.40179956348544,36.688493487767246,79.43438146382945,20.27937516622903,3.606958980560904,1.1031318120357092,34.99547716773359,89.09953746442648,Tracking,362.655680373691,1.0,Random,Foggy,High Performance,5
421.39309731875386,41.08197142607025,49.725105530489,30.27407196693593,-6.812246140323886,16.412831207089575,12.408043668450102,49.61759261011153,Surveillance,553.9357015014559,0.0,Linear,Clear,Moderate Performance,9
471.6912214527416,44.48811894632755,309.28023275289,42.69953795746278,-4.785023891547485,0.7539478084534124,3.720631581784087,82.47231640769202,Object Detection,424.198178538109,1.0,Random,Foggy,Low Performance,13
262.0410778110266,22.55501986889882,180.0209733087912,42.80417272409872,3.726652957393768,7.343392513900453,9.65852172821321,40.21563818439675,Object Detection,278.0158222166623,1.0,Random,Windy,Low Performance,12
462.44440085299885,31.52090821455612,242.9615530994957,-39.12509181901825,-29.64811632677032,10.845999512421582,9.388216426487483,10.239446279317654,Recon,525.685407643108,1.0,Random,Clear,High Performance,6
228.5982804991528,43.604323137568,86.06389826701069,28.965539047761222,-25.28940789278341,2.962015972542549,4.343343749139697,6.150573645863855,Recon,157.77396552262078,0.0,Random,Windy,Low Performance,15
290.57479453751665,49.57804523860226,272.89455156403795,13.167894029164316,22.875484065780697,14.926276251381536,3.4289802166483287,5.133437132367757,Object Detection,353.88784910962545,0.0,Linear,Foggy,Low Performance,13
190.4115991263999,45.580772441750526,273.60199618635545,13.260792093578203,-25.327260654522554,0.1670940834427714,33.05314682398597,38.015014195766994,Object Detection,573.2972008496284,1.0,Linear,Foggy,Moderate Performance,10
356.1904168703376,24.85869050497508,112.53528896698803,-33.44850660467747,12.408215772630308,3.3719809686807367,-6.506903965766916,33.72377508358421,Object Detection,397.7147201354229,1.0,Circular,Windy,High Performance,7
491.59244606992354,17.806660688746017,147.84574788370182,13.5168449801088,25.202289846543152,11.615936597069512,23.88055910497971,71.79370236225695,Surveillance,501.1629632564332,1.0,Linear,Rainy,Moderate Performance,8
341.39723841735145,29.575701496263548,75.4884998748723,43.4234322541123,-13.758983741896134,14.287751240745848,-1.3589974271773857,74.28215015848659,Surveillance,412.9227917944041,1.0,Linear,Windy,Moderate Performance,7
243.12563364541955,39.66565807344169,351.5619683962456,37.06367125855023,-7.770513776429144,18.332862053878323,7.22529466970316,5.085396883373983,Surveillance,513.2602663104608,0.0,Circular,Foggy,Moderate Performance,10
359.12697839621137,29.702762830131903,232.4169277410282,-5.47824052756345,4.13528435068298,14.109933038692477,-6.922848293258157,22.112326288901496,Surveillance,570.0234551164315,1.0,Linear,Windy,Moderate Performance,10
149.16827138615503,29.32723453254674,336.4357970575856,-41.40468240425151,22.902538178315083,13.43558540509732,3.4986818427731023,27.42618501588997,Surveillance,207.37773286767788,1.0,Random,Rainy,Moderate Performance,7
455.4636321061595,43.529216843272025,109.21879570648794,-12.393585899981566,26.51433523562521,7.886822927013286,28.42105355586211,54.76119841428094,Surveillance,151.6169838786282,1.0,Random,Windy,Moderate Performance,5
301.23358031193453,24.45615116268745,281.4807286788803,29.375128044049973,14.37379488667608,0.0256885105360282,34.25076622736293,14.451522390695024,Recon,321.35500517957155,1.0,Circular,Rainy,Moderate Performance,10
279.7398968158568,44.39178699246583,275.70911179850714,18.13491913186494,-24.80281434871836,2.403185174712439,1.0763575951183526,13.394121940000035,Tracking,439.0057104850766,1.0,Circular,Rainy,High Performance,4
334.3459153814077,26.272192038068944,248.99603467195496,-3.659070996543925,10.149249332091046,10.691090895120784,13.177391962946093,94.3788889207958,Recon,182.6832767183967,1.0,Circular,Windy,Low Performance,12
349.913545115761,23.129324227133576,347.6300310960481,-40.0408618357052,-5.381776687640276,13.502597716888394,13.51620239686032,80.4202907297781,Tracking,62.21478323229022,1.0,Random,Windy,Moderate Performance,9
128.71032249060522,28.15959644798796,141.6799209982736,-6.579474495902765,-1.7579400305363038,8.34896567792925,33.67876528798671,18.06549020911703,Recon,245.1849625518209,0.0,Linear,Clear,Moderate Performance,6
373.046888489361,40.49787834699474,47.05823649231262,-2.787755425390486,-27.05109657928938,14.613580230567804,28.13995264379028,40.6567807905491,Recon,583.1840411526058,1.0,Random,Foggy,Moderate Performance,6
196.77267212621183,15.040081114559772,241.81518932786187,38.56999796047224,-18.53627163921851,10.437245906643575,15.653860918402492,35.56219992575655,Surveillance,435.2824287271572,1.0,Circular,Rainy,Moderate Performance,9
385.581053002636,17.856768634880694,262.55152817179425,12.697749322394351,17.430816452018867,1.4835239118862442,23.53736002358867,79.10040740654073,Surveillance,276.7157397282609,1.0,Linear,Clear,Moderate Performance,9
429.0139177536787,48.05779302652368,207.02180644517327,-16.9512375010816,-2.7624700171284147,3.8403250193589766,32.36775269546834,51.021291647812205,Tracking,163.99109256729378,1.0,Linear,Windy,Moderate Performance,8
421.5834030210081,17.019665095254297,74.45444152802266,2.2786438005649217,-11.90026550213107,16.799964464878858,-9.523052298722751,12.784973699346702,Tracking,252.28842382756332,0.0,Random,Foggy,Low Performance,10
321.0003869631556,32.709092717242186,181.604139000968,-39.0550222960056,-6.95885556210251,14.49825493248879,10.14450155250243,73.89920631562438,Surveillance,151.7132939826739,1.0,Circular,Clear,Low Performance,9
308.06795692430046,33.17257866647751,112.3883051648866,42.53114120847631,21.26397079954081,17.8952397402499,35.362158363853936,39.68879782249189,Recon,117.40514350899376,0.0,Random,Rainy,Moderate Performance,7
157.1503845357647,29.58497848200979,153.88795014000806,-12.594608826234662,14.939941044297411,2.351144982418732,27.015651542197567,26.292424763214704,Tracking,549.640881189179,1.0,Linear,Clear,Low Performance,14
410.1384601612542,35.78980994307274,232.278687304079,-1.9919380578177768,-13.661076169135033,19.80445069230148,17.142068716703733,37.54986220207201,Object Detection,598.7311827227558,0.0,Random,Rainy,High Performance,4
208.5637521786857,19.19306903190473,268.27730736870046,-13.024442318676968,-22.9498895872576,4.188134278998672,16.482226351756672,49.77565636068964,Object Detection,148.62179738172676,1.0,Random,Windy,Moderate Performance,9
298.67816912717865,32.106490711069924,83.60088872448353,16.426055710458016,-14.880106701355697,0.2355975257328402,7.388504880221888,34.311551641700945,Object Detection,89.44218179427105,1.0,Circular,Foggy,High Performance,6
213.70963717100668,24.886930209875885,145.9171298329032,14.600894249663376,25.24538706328402,19.94845878107108,16.026026682075727,24.190577259175782,Tracking,238.05479785895463,0.0,Circular,Foggy,High Performance,3
153.53134519987725,36.46669038516756,96.89816555698653,19.379007947622213,4.895330270985319,5.621477708902263,22.769159973172663,39.85020288039804,Surveillance,309.2959576111643,1.0,Linear,Foggy,Moderate Performance,9
351.8230787566946,15.64894173492598,71.50738099027288,-20.867109334927125,2.0088125246869737,13.360389050251198,10.918151921439655,1.917291074989824,Surveillance,170.60347342096142,0.0,Random,Windy,Low Performance,12
121.73281392916152,32.835096673579045,282.01939919850184,-16.589836695234062,5.78361598154769,3.533646283526104,25.7076573196087,77.24978460963139,Surveillance,222.7694523712216,1.0,Random,Rainy,High Performance,1
399.45809365048,17.410814215332948,327.33096999731725,-33.72738920134128,-8.038304055209085,11.604570643982834,33.061611363019296,17.09448935675858,Tracking,168.47019727349516,1.0,Random,Windy,Moderate Performance,7
227.03471810444665,21.145722524601457,133.28358684644763,13.995897466150131,18.426421219170763,18.080699729091187,-2.265757590756942,4.390461363063725,Tracking,478.1007069535237,0.0,Linear,Foggy,High Performance,7
100.05387720179412,18.748392012943327,270.46041277455606,-41.41825853979127,1.3971749580149897,6.403623348568772,12.577351140871222,65.36986929050792,Object Detection,444.7920893535208,1.0,Linear,Windy,High Performance,6
304.4516556948919,17.313511194752685,322.918304171188,8.791410197111318,-22.995125833872265,13.405079520887185,10.401004564254055,77.39361288236722,Tracking,402.87381851093016,1.0,Circular,Windy,High Performance,3
118.74076341104126,43.02843806242668,304.60471579088335,33.27262963664705,-22.256092510256224,3.75807177596833,24.373240202486407,81.38291315928431,Object Detection,269.0976428227706,1.0,Circular,Windy,High Performance,7
210.46782312835973,21.428302706435613,65.81281987412133,35.17489334606702,2.211548790157103,12.495907974374504,2.493373262896468,49.35091826605999,Object Detection,550.8821083096874,1.0,Circular,Rainy,Low Performance,12
382.7905949822865,47.084951274577975,344.2650773448101,-4.58660156670345,26.19421308425035,6.729007036350203,22.012545747613814,20.53681846899853,Surveillance,583.5475724289108,1.0,Random,Clear,High Performance,6
125.07584864874634,48.79706101380764,135.6035185546065,-3.662668060823364,-11.498872699428077,4.224165171759033,33.874462086574404,73.72276772498267,Tracking,153.76522881772246,1.0,Random,Clear,High Performance,7
435.73539694240094,32.8504187974839,122.12663802258108,-38.07277352927844,22.17247013155309,6.263641014072703,10.906579989681134,69.97130771543371,Surveillance,180.4268263624141,1.0,Circular,Windy,High Performance,4
101.52796906343325,15.720044906629056,22.47527782000092,15.368852289873216,15.84573519473276,3.576821370155987,35.550784998961,24.627073410317323,Surveillance,343.8407551201996,1.0,Random,Clear,Low Performance,14
198.7295476807609,24.98192973518325,175.02251547775788,28.913347833556088,-15.131253425585587,18.03832215675765,39.65818694667392,90.34077558627928,Tracking,109.27530741241245,0.0,Circular,Clear,High Performance,1
396.3616224608286,41.90929053392856,39.24490163073433,-22.981045085575825,-27.81955510102545,7.943737726342577,-4.695397502602397,10.4371458082829,Tracking,295.6821353644809,1.0,Linear,Windy,High Performance,5
226.50805989172272,24.69562914788282,89.47433553387336,-7.082920652997181,-23.88916409145704,4.905586099487347,1.652659399242932,98.26882395913256,Recon,374.1672829799635,1.0,Circular,Windy,Low Performance,14
140.7569552264054,13.480688732111547,114.0993438362213,30.495540308874325,13.709636030846411,8.968156820318658,37.518987574104656,86.02478109774646,Object Detection,341.91972841415986,1.0,Linear,Foggy,Low Performance,15
244.09356752017115,32.27139643712752,291.17747645700626,33.94084208960592,-18.0198157175612,6.410723336129911,37.91638432406934,68.78986454790751,Recon,238.6906348621341,1.0,Random,Clear,Low Performance,9
208.1573145538102,43.80483405984139,315.17591414252274,-23.113801776219667,-7.723744769676372,14.88838507626652,-5.114636230662075,93.87498882798327,Object Detection,352.9207352816917,1.0,Circular,Rainy,High Performance,2
437.084760864222,41.837055485740095,108.88787428612908,4.551357108722783,0.1019499603854896,19.424398237709887,-9.250074981143166,72.23111683237077,Object Detection,577.7525152997778,0.0,Random,Windy,Low Performance,15
225.33916703405723,17.00492560521413,309.1313236480466,-27.675616442775564,13.528090107009769,8.760673133952936,-1.944998837178888,19.0456997030046,Object Detection,171.24939831734306,1.0,Linear,Foggy,Low Performance,15
415.5729887104029,36.91058457649866,308.6031374531248,-35.83091122743991,-23.20612660445248,17.220667999444807,39.800639169112415,44.21561381128117,Surveillance,413.608933532762,0.0,Linear,Rainy,High Performance,1
456.7488579242939,18.820170537425884,275.27434213855446,37.000845125276186,-5.618015683352311,11.31726147119239,-1.0000191694656575,7.150302433163535,Surveillance,83.434214844268,0.0,Linear,Clear,Low Performance,11
273.52696783061185,18.72830138208689,52.81024104546536,28.84567538088983,-0.8956254514382742,3.1447133018846696,15.127380336101158,38.96574222881154,Tracking,95.86485841997488,1.0,Random,Foggy,High Performance,5
463.9772575417568,44.96287093220741,248.51622488426244,23.40314116228565,2.449623838292382,13.812454841626831,32.42088632152555,74.16030197372086,Object Detection,357.9872410807359,1.0,Random,Windy,Moderate Performance,7
250.92722158527715,19.986758109609205,340.2086632490048,-40.61103130681736,19.101638483713003,10.268689942516405,-8.979919465589683,38.644335093081736,Object Detection,116.6671573770927,1.0,Random,Rainy,Low Performance,8
485.6313665960433,20.52989386072045,245.7145723561765,30.93559134392318,-19.699308297406983,13.01213046504207,20.224449112922976,33.02941754681341,Object Detection,72.06726575050295,1.0,Random,Windy,Moderate Performance,8
135.7158098102292,10.026135630451982,119.38206567882024,-5.576033168515465,18.469887109597337,17.7937482514333,3.851272443481216,59.53557225103119,Surveillance,152.617018729932,0.0,Linear,Clear,High Performance,3
374.807706601297,44.82676136502071,180.2085542750993,-14.184438903372634,11.572705661799134,8.808691413120922,33.11674582198658,87.2204528998895,Tracking,365.01855233977017,1.0,Linear,Rainy,Low Performance,15
297.5256161827715,41.70379252836539,232.4610156063793,4.182872492283877,3.35224885193756,18.023552464347112,4.173057463203959,4.7583192546112425,Surveillance,439.8041154402235,0.0,Circular,Clear,High Performance,2
255.05952218225883,35.09315740362712,183.8053471422613,-36.77820815487998,11.971672224154318,15.013380285633096,24.337786014095443,38.54704346997354,Recon,169.3384246363452,0.0,Circular,Clear,Moderate Performance,6
353.0847514994404,40.01063055755369,43.183059023149134,23.09818944171589,-5.278935662900615,9.772098517559694,23.710981622369843,15.82407418152627,Recon,420.8600960924142,1.0,Random,Foggy,High Performance,3
381.5428366537325,16.081942696979674,112.34305607472744,7.41915691994663,-21.696144841912528,12.064442713159274,1.0746774429820007,69.53542507318696,Recon,158.53721879358386,1.0,Linear,Windy,Low Performance,8
101.74530786012365,28.33294378350302,288.8625709993077,-28.20689128141492,9.94591441592204,6.511622650380229,-8.260040006582495,10.572456043113489,Tracking,391.2670103808789,1.0,Linear,Rainy,Low Performance,9
166.78123549887948,24.04877549395124,310.1104965943863,-28.059102020785897,1.4803384011373346,19.671945994775484,10.462478689269863,66.48077585802446,Recon,282.4582271437314,0.0,Linear,Clear,Moderate Performance,9
385.21842025372746,13.75106105028066,49.428011777605285,-28.41762135845932,8.362488032566532,13.34702326100792,4.459657598293486,28.618087079790733,Tracking,413.05173504015306,1.0,Circular,Clear,High Performance,6
366.55416543128257,29.44521940859696,342.85923086354086,-39.86978512032594,-9.720073138290598,0.8769370499325979,30.44888748068543,19.89168137372247,Surveillance,597.3284863387935,1.0,Circular,Rainy,Low Performance,14
486.4190020514709,46.829586013705416,118.37614242549937,7.901860443451632,24.411994640390155,6.532438114960176,30.018209422767264,93.63525578249852,Surveillance,566.4211612255835,1.0,Linear,Clear,Moderate Performance,7
404.4151161003132,11.60236476202778,238.4329459430592,30.631335982965723,5.2421921145346175,12.46628867518115,12.851197609631274,1.8524576745955867,Tracking,62.31214923149596,0.0,Linear,Foggy,Low Performance,10
480.3090830925352,21.658436539751754,270.6570525444052,-43.425160741135024,-24.87585094254757,1.126665555984796,20.325611266160944,43.777727188956895,Surveillance,538.1369327556451,1.0,Linear,Foggy,Low Performance,9
381.0162006139228,18.30163744822814,292.30064446963803,-40.58958195258538,-3.0117605577342808,0.4776838263828553,20.21297579934626,2.162699246179378,Surveillance,95.90502939437393,0.0,Circular,Foggy,High Performance,1
219.22088345577723,19.52586614662785,340.4698928013348,6.549324901825123,15.38136328461806,9.000484790556051,31.35790742138117,48.3593048104329,Tracking,574.6451565263162,1.0,Linear,Foggy,Low Performance,15
142.14596890034258,46.337382075175015,112.65103729037614,28.75461168474472,17.64807370393634,6.6538035938534,11.250120706159876,50.10473777944182,Recon,212.1858667138297,1.0,Linear,Clear,High Performance,5
412.72954533797423,28.72276216937161,309.06232363855963,-15.593499848822976,-0.324176834174473,8.765972160663317,3.772333989525453,32.1662471394747,Tracking,266.2988084220863,1.0,Random,Rainy,Low Performance,8
357.6596885903664,28.65197651759275,47.407285237034536,-13.534704107305007,23.684854249878065,5.253866197600104,3.2517459070273738,13.216177752502368,Object Detection,109.48463079489304,1.0,Random,Rainy,Moderate Performance,8
119.2744049573185,40.42302569821129,253.81472628729333,8.671184774709836,-13.939893768342143,3.2943549388596183,16.809613964110206,37.63875377344753,Surveillance,120.62728949761116,1.0,Circular,Rainy,Low Performance,11
244.0201863603913,16.17968816019703,267.1119826250349,-20.32083997882677,-5.364078165704004,13.782867139606754,12.45741013661063,67.2262939932566,Tracking,452.4399052238326,0.0,Linear,Rainy,High Performance,6
482.71992619371446,29.490614164002032,243.98036683247537,-42.605247053008426,23.9158146341382,10.29142232535601,12.00603854924681,78.23958086444591,Surveillance,569.9394073040775,1.0,Linear,Windy,High Performance,2
300.1604582840805,27.19940856484239,90.83330500865507,21.17056662914365,23.775402988294736,4.003084224987337,-5.443133045514639,53.07506023881423,Recon,389.8041872753272,1.0,Random,Rainy,Moderate Performance,6
273.09165440788183,33.87642762186624,314.2955329254732,11.30849216473078,11.142766129480854,6.391788525199966,25.93018703450978,58.98343944397556,Surveillance,446.559008384478,1.0,Circular,Windy,Low Performance,9
283.0798420637176,49.98230813001754,60.7890468133422,7.268039915009318,21.53883282733321,11.83615815326652,0.6868343990955346,20.06163711246527,Tracking,471.46366208246286,1.0,Random,Windy,Low Performance,13
183.55308960206548,40.77795576328188,19.3085249474991,21.75157160926408,-24.67360398262604,1.444586965449557,-0.1523184895639318,28.733033322764943,Recon,201.9197082585885,1.0,Random,Foggy,Moderate Performance,8
247.4828683459181,25.91462812069709,258.2873966202884,15.770775380583371,21.899698572466576,2.949060185323591,10.637916013869674,16.18956100523584,Recon,84.42400069691607,1.0,Random,Windy,Low Performance,8
247.92530239487064,43.10212209096188,171.17125748378413,-26.470621063951096,-10.762805606986394,1.4649120821478023,1.3889170808900708,24.929535000461133,Recon,61.01128171635104,1.0,Random,Clear,Low Performance,13
120.94200807498896,16.828334532499206,305.6752871851234,-13.276705775098396,-19.30010925430702,16.246346654282377,19.19291336540077,22.488678022553177,Object Detection,249.3506127951701,0.0,Linear,Windy,High Performance,6
407.0270514071673,11.218547452358404,138.02297078097322,-33.650087248923754,-15.63780981947722,15.048184664240186,8.573166966723576,51.94487863912376,Tracking,190.3906832275767,0.0,Linear,Foggy,Low Performance,8
266.6017727615516,18.17793489857092,60.58029186277662,-33.31286879239071,-4.921889519166776,15.06625863758514,12.445586129639503,56.26887557907294,Tracking,93.65157152656025,0.0,Random,Windy,Low Performance,9
428.8719547265693,23.616462244570386,301.1191892891531,15.857617172088531,-14.928479723731966,14.32650686952056,16.858466080201442,94.49474208215044,Recon,156.94527794658006,1.0,Circular,Clear,Moderate Performance,9
440.13920044795816,30.4232302983824,197.6074673904258,32.274009628424835,-10.765944839010055,13.387708473397383,0.1767761240902423,19.557064710152304,Surveillance,127.22940506469182,1.0,Circular,Clear,Moderate Performance,5
184.79762187946324,34.60516562164799,68.11048526052775,41.64593254750251,-21.90129083570148,9.5398383075635,-2.2124188567235104,64.1675710161496,Recon,554.0343255333801,1.0,Circular,Clear,High Performance,4
362.9413928680514,46.42422868857687,259.3382394911205,11.551240579449995,-12.229394066460088,12.8455632701423,34.02109514368024,81.72592689875229,Object Detection,135.7442952679512,1.0,Circular,Foggy,Low Performance,10
288.9127216651927,30.394160382018303,184.0009098562202,-28.43088089751388,4.337028872520072,0.767231095759493,11.686185141571052,56.02414637830525,Recon,350.3301705533468,1.0,Random,Foggy,Low Performance,15
452.062695168594,30.05102578502917,217.5526736065152,-35.49146890959624,-3.488777514536164,12.429288453135692,10.604680481626955,25.50036525010757,Tracking,380.2772157605689,0.0,Linear,Rainy,Low Performance,10
186.29627167058163,12.009720392919284,165.92340175436948,28.156587438308208,-9.196874325845329,15.557554110737543,-8.219392486357926,26.255023002000023,Recon,353.4843071626622,0.0,Circular,Foggy,High Performance,7
371.1252801240177,11.396462106248952,298.3352341744823,7.088082872399937,14.787127731426835,10.007167207687804,14.898815129369662,3.925305307099991,Surveillance,113.49047447663352,0.0,Random,Clear,High Performance,7
343.100848901089,32.046398476654886,298.642577645898,10.645651891234785,23.610598283599074,7.150266568544739,17.708486080550003,30.54442265484817,Tracking,232.15111534529763,1.0,Circular,Clear,Moderate Performance,10
218.12059102873312,27.52714452993378,255.37997585677903,25.331587987923825,15.407353374143824,5.548534696019583,17.942043547733324,74.46036790033801,Surveillance,87.68597953010277,1.0,Circular,Foggy,High Performance,3
154.64036146046905,43.56721579921194,37.94449586272642,18.294950495920645,-10.07995787293925,12.85604100324165,25.35155846614422,4.751775720711038,Recon,273.66175361201067,0.0,Random,Windy,Low Performance,12
360.6559041909106,16.427183388473807,301.9873902854648,30.10124275704869,14.666530070253224,13.856023972598177,-1.1259082504494111,21.929528250483067,Tracking,161.84342288665968,1.0,Linear,Foggy,Low Performance,9
395.4389832529323,10.998866484681985,241.5646729918476,-39.94074850861094,-20.881189051556927,17.41935199725085,2.61115671153094,70.6232498531782,Object Detection,363.2815679735651,0.0,Linear,Foggy,High Performance,4
226.25093750534,27.96155071720504,250.92869976154785,22.27685730718544,-22.180920714522543,6.846681649219814,30.536523261520635,78.26515628228766,Tracking,434.1165326785143,0.0,Random,Clear,Low Performance,14
357.9330416089255,19.4991422700903,130.6738225453938,31.5767481589886,-9.262377777830466,15.395446147711713,37.3585308421697,45.53184100619284,Surveillance,347.3447245105415,0.0,Linear,Rainy,Low Performance,12
258.0523630446013,11.984574933553498,316.54064021652243,-19.24784617875171,18.462142142643422,11.22711648378676,-3.2033626316339685,69.80743384786489,Tracking,294.4878161701537,1.0,Random,Clear,High Performance,4
385.2827533130471,38.98393147390516,261.1337760845487,12.64025465939276,-15.219105165461889,17.656729813561583,14.882477725260909,38.7952168654892,Object Detection,269.16004726261394,0.0,Random,Rainy,High Performance,4
179.68610995762123,14.4637199982899,40.53256795051001,-16.72541425467251,-26.204795466079226,10.556242165912415,0.7088126369793422,15.991324502412752,Object Detection,514.513554772382,1.0,Random,Clear,Low Performance,9
456.08600105446976,34.33278000031087,146.80009238621855,41.21739598342086,-22.097427887618693,10.352596567959344,-6.996341582250878,39.814949352290654,Object Detection,178.45875513524584,0.0,Linear,Foggy,Low Performance,15
214.96383858623187,21.241990006675564,319.09693030565103,-41.99187848080466,21.52469811177481,11.557541628818182,6.275166906306772,57.996782020314285,Object Detection,456.4779033455892,1.0,Random,Clear,Low Performance,13
247.1143951024612,16.93984201420088,16.990812611056437,7.181355944965951,8.026997084837255,14.986307102848688,-2.815618740789363,94.80532818528904,Surveillance,469.0404553596642,1.0,Circular,Clear,Moderate Performance,7
123.23678083213991,25.190060916772698,346.10998307113783,-30.01468076554364,-14.8079301978014,19.293809576569217,25.49665367171232,6.875095208867732,Tracking,286.3680039261966,0.0,Linear,Clear,Moderate Performance,6
144.60488492851056,42.05783104891815,244.4985245950426,19.09981846594428,3.317749519690878,1.471267084315313,16.68627068357222,50.73940938449606,Recon,220.54232358184524,1.0,Linear,Foggy,Moderate Performance,9
306.34476108493124,25.683743076182907,227.2953519516156,-29.16987449232041,1.6547773455210226,1.0686920478203432,-2.808276450484456,32.89197782107244,Object Detection,314.0924024648266,1.0,Linear,Foggy,High Performance,6
207.0370706911886,40.03078596844223,97.4013323356769,-23.81550642914782,9.326158706439678,18.75100674814677,-9.537920579724284,50.83116942766945,Recon,110.3355199820572,0.0,Linear,Foggy,Moderate Performance,9
434.1920902968778,15.019451871966028,89.56504394610374,-0.506627005881775,-16.00874673470302,10.597512510364124,30.40785245121064,2.397544737653168,Recon,84.8022174037086,0.0,Circular,Foggy,High Performance,6
105.87735546198154,40.91085678660316,339.1409590158944,37.33514549971903,21.86417923166386,12.298060291338722,-1.190279691787623,31.302535470158134,Tracking,120.26572770402156,1.0,Linear,Rainy,High Performance,7
251.6376194687745,19.477332996265947,107.3780835242842,-25.945706506682622,-11.43788627519923,9.648472031894578,20.31083211103829,81.9868147527005,Recon,161.05831698960213,1.0,Linear,Rainy,Moderate Performance,9
234.93821870763708,37.09572519555491,279.18190681883976,-32.018398099370685,11.647899238574212,1.8731490521494896,6.846095653837278,55.39417338546375,Recon,332.25548298254324,1.0,Random,Windy,Moderate Performance,6
107.73105236704042,32.631262193639856,141.5238473545485,23.30791486686276,-29.032521217667107,15.36178756837333,19.27429691575178,45.05824928161174,Surveillance,518.5337835270059,0.0,Linear,Foggy,Moderate Performance,10
149.7473596002041,47.16578868846749,50.13146548249343,0.055757910053785,-7.640572206351166,14.94449290177174,5.782681349116201,28.55250717153396,Recon,187.24685927983097,1.0,Circular,Rainy,Low Performance,13
265.4570699674541,25.49290071901256,3.857507170329222,37.06066011435942,-8.8974109224715,6.23406642985624,-5.653021965387292,29.80425227913559,Tracking,564.9874858032601,0.0,Circular,Clear,Moderate Performance,8
297.1458337789786,12.646607553377615,195.9326413254903,-31.8046898556142,2.609065714980872,6.124784904568008,1.14750042788768,38.31014335905844,Recon,575.6502708249019,1.0,Circular,Foggy,Low Performance,11
261.71589890194764,10.766219422050115,351.2803746776158,13.133510372073538,-25.63582429336821,16.75682761811037,-0.5970716760462196,83.55707099645603,Tracking,577.8084866164108,0.0,Circular,Windy,High Performance,1
312.37507136483754,43.07434243891012,132.8890297713136,-24.040876846336648,17.407882423566498,1.4471451548265324,11.400967621982192,96.72132068082684,Object Detection,512.2838767252149,1.0,Linear,Windy,Low Performance,12
338.0526699622726,30.989425506457287,128.58924023749614,-30.891561421352463,-16.93315189394589,17.622102967131315,22.914189171307868,43.865538135037454,Recon,256.46552203076914,0.0,Linear,Windy,Moderate Performance,8
103.96952845113424,41.00976207339797,123.87298242579917,16.50864736415435,10.622268892920616,5.1332337979182885,3.190303747317877,39.33528387477618,Recon,99.24931194141644,1.0,Circular,Clear,High Performance,1
285.6380637814016,19.377024000460587,187.39578142974904,8.431615791785987,18.1927273946456,11.859694955109878,-9.396503234969105,84.65507758198628,Recon,367.1621151539072,1.0,Circular,Rainy,High Performance,7
485.3996963550353,23.80334982052935,158.6393580327457,22.93447125260981,3.71261737449079,18.71988358003556,15.946868213237844,42.69053206363036,Object Detection,361.6879797261062,0.0,Linear,Clear,High Performance,7
307.6129120518195,11.204154888452758,316.7692656217252,-17.14836811984359,14.45299240331913,13.56245003073293,20.287974467948604,55.20181722956512,Surveillance,518.9869142391816,1.0,Circular,Foggy,Low Performance,11
371.0169069835813,48.45969298296448,181.9874850204565,-4.682550925602904,9.711618732900334,8.288596249340731,38.14352470009048,23.094166459874444,Recon,597.8351675108968,1.0,Random,Windy,Moderate Performance,9
224.7455431667533,36.71471626803253,182.7928217478848,-8.50754913026234,-8.668212170879542,13.790684178108304,19.47354015466234,74.35025357790752,Tracking,334.4049455424797,1.0,Circular,Clear,High Performance,6
409.596551261105,47.32820351037225,49.813774099400376,43.56805175698628,18.53151234201392,6.879592726327404,13.558627968907093,53.19883182707819,Surveillance,246.41017676148348,1.0,Circular,Clear,High Performance,3
409.168592750446,20.61985629716289,353.78623472773893,-18.69759389345509,-12.317917806868325,5.545168326983722,18.67008129488519,80.90345502403416,Surveillance,160.3869242403842,1.0,Random,Rainy,High Performance,5
308.51841906165555,34.458544449026434,89.99024071277869,-18.466448548790986,4.272775065091032,19.9336655586936,36.39503149310135,78.07327300286697,Surveillance,62.5919054013802,0.0,Random,Rainy,Low Performance,15
490.4055293116854,37.13999873170551,26.41106428545696,-13.090661205425334,14.72386434849237,15.015804623595754,31.418907280082315,21.500476827002856,Recon,334.9213939439948,0.0,Linear,Windy,Low Performance,9
150.22008590506135,22.701988010303538,238.7326496310752,5.813467316128936,-7.262645411249544,12.894399547636352,6.148936668190402,71.56355505577623,Object Detection,359.9800800194017,1.0,Linear,Clear,Moderate Performance,8
106.7790659558324,43.9243694006252,214.33189325647416,-22.29095301626293,-11.833943542954495,7.105792864386375,1.862718182856863,80.00544079513713,Object Detection,505.4667791013946,1.0,Random,Clear,Low Performance,11
408.0632847028384,47.88645851600991,149.45243543738846,37.376094634134645,-2.439239389630636,0.9832165831009632,3.1316806183036814,34.61072407823951,Recon,332.4715626621123,0.0,Random,Rainy,High Performance,6
422.862214945953,45.394204707840174,151.9892041970441,-21.08829916203629,19.07780966094921,0.6211375207031122,15.22105198576065,17.260911290227455,Tracking,554.8929082796706,1.0,Linear,Clear,Moderate Performance,6
148.0828916482305,39.5626790375749,282.6230115767152,35.62341584041752,25.79530578873989,11.083625108975976,27.20247256142889,0.263215557958818,Tracking,399.1650773485752,0.0,Circular,Clear,High Performance,6
206.2331331834424,21.09858718899816,70.45655043587367,-35.68724427180738,2.7050047715934085,15.240654420781022,15.160960359148106,45.09036530931482,Tracking,513.7815686393849,0.0,Random,Clear,High Performance,2
107.02094534665156,21.264641684225268,295.2911948201603,14.090643215968711,9.68797231941911,10.7475838088771,-6.610180208594371,35.24327315388416,Recon,140.08293679618345,1.0,Linear,Rainy,Low Performance,10
217.3234443122259,48.53441281784151,233.5489610022065,36.62869665944193,24.196417334334853,16.81570143878229,26.17903502199905,55.49098338254089,Object Detection,521.88151036325,0.0,Circular,Windy,Moderate Performance,8
409.2567495674686,10.41137983742768,150.8291185606288,-29.812550544159343,-24.087188915223457,0.6685306618644327,30.298506433547693,18.804109258878576,Recon,424.5776813996781,1.0,Random,Foggy,Low Performance,11
307.1842110850316,38.64199892968578,164.8903019701927,42.14942640893295,-16.0752853280301,7.335041528518802,4.474893255985982,85.96655476664752,Object Detection,151.9258375166985,1.0,Circular,Windy,Low Performance,10
239.23823726731524,38.24984650221049,92.39299458699448,-4.240497562603949,12.534000375094948,4.741407823483561,23.20628696416752,25.775521562810965,Surveillance,162.47232139884585,1.0,Linear,Foggy,Moderate Performance,5
248.6957179625321,34.907581637991896,270.7611597709109,40.114359759692206,19.42466771473798,8.94545936314244,11.329595052719668,22.642960508765,Recon,560.3103342838795,1.0,Random,Clear,High Performance,7
100.54145028618726,49.60435384347464,184.6349072298964,15.913803926704231,21.42174169983468,1.4475278638824496,34.45596778637214,48.0714056484356,Object Detection,77.39629464320136,1.0,Circular,Windy,High Performance,6
219.9202110260944,22.47517743054901,115.5076353899437,-17.85718171138036,-5.093569388704044,19.08263283142145,32.261277908036995,49.88510237442743,Surveillance,309.7688693796813,0.0,Random,Foggy,Moderate Performance,7
358.5834966551722,23.598874551729928,214.5780416739421,-28.052772757460424,-24.63960586248799,4.465108021387218,16.271599915482113,21.50852287850928,Surveillance,229.27665656441485,1.0,Circular,Rainy,High Performance,6
489.67777752654285,13.157576117862222,358.4644027384763,-17.663845839741054,-3.733111362022804,18.44615550967169,24.57527729067972,27.18607267259158,Recon,419.1418175991511,0.0,Linear,Rainy,Moderate Performance,9
438.8243307935598,27.71192546174949,156.6944206763594,-36.62843316635925,-16.155924587576774,8.517863100733635,34.1674850511052,16.970523915524495,Object Detection,513.3998692872557,0.0,Linear,Windy,Moderate Performance,8
109.43798585821165,20.441941049393925,331.44890428030305,-32.051883029100324,-12.528212700202552,19.71048266510436,14.785850503913776,71.84601783231668,Surveillance,254.6041856405476,0.0,Random,Windy,Low Performance,13
459.4242418699357,23.73546808710577,124.2060623728438,-35.5805603688167,16.33605341025035,11.081167669204214,5.662537024441098,77.0089031254082,Recon,290.5271271543321,1.0,Circular,Clear,Moderate Performance,6
413.2793653194504,43.38287161022511,19.70377449299492,-6.935081063259801,-25.46837483844679,18.616657283516147,27.683306895479063,46.23284974592826,Surveillance,590.2356036307636,0.0,Random,Windy,Low Performance,13
412.15044942839216,47.41938054109983,73.5271582926344,26.60205386318277,19.654873048842127,0.1069797738844569,1.0033127392345893,71.40870226850174,Tracking,483.31491522676953,1.0,Random,Clear,High Performance,5
283.1983036014286,17.429322880207426,150.73025159796632,-32.27548012052938,-4.339854850549855,14.964776123618002,9.426557400302102,73.59353919374455,Recon,544.4902307031673,1.0,Circular,Clear,High Performance,7
259.2021171818011,24.90035726213864,79.06857429404485,-33.27116101448977,5.763835866035706,18.061013062050307,33.286361855339685,13.82755276778086,Surveillance,296.93159915188005,0.0,Circular,Rainy,High Performance,4
221.16629153327705,47.145222484615765,0.0817337585719935,12.90860545655977,-24.62086612585926,2.794411339579081,26.22111701346575,96.61780248345369,Recon,186.4011501514222,1.0,Circular,Rainy,High Performance,3
126.27794358174631,12.472338427568904,329.4005535891098,-27.25353162287404,-9.758455298563224,1.9225170346430296,10.190550262374964,82.1031947096431,Recon,282.4062713086839,1.0,Linear,Foggy,Low Performance,15
191.29414539747964,13.69442112445514,303.7965880431344,-36.21509657019075,-24.61794485910925,8.491452143719112,0.7372251204178699,20.44834611958235,Object Detection,446.6896356290173,1.0,Random,Rainy,High Performance,5
198.64145399120983,16.511639568249173,267.225203335301,-29.98362796149801,27.69262337286657,18.673578122658704,7.798419541611825,18.616503574607023,Object Detection,119.09241861142884,0.0,Random,Rainy,Moderate Performance,8
293.63082788408065,33.80851336507499,60.41325443257031,38.135825628909856,18.435698959575028,10.847731203808774,4.20520746137165,12.566114557958274,Surveillance,206.0533170329148,1.0,Linear,Windy,Moderate Performance,10
398.9777626386776,16.018890840239898,43.33088743559498,28.93241274985718,-2.422034738612385,10.549129274434645,-1.195535602807304,13.837856254191838,Recon,85.1833862492588,1.0,Circular,Rainy,Moderate Performance,5
289.5239313591786,48.72305525802934,24.33770981005793,-13.13418938804153,-16.58384710057973,2.8225223659864374,27.16664567828284,74.81617990286962,Recon,293.46777870259103,1.0,Linear,Foggy,Low Performance,14
123.13777977886424,27.86858109034081,260.65050795825164,14.023869059465357,26.007306314991133,0.0157902218643757,2.603494342508576,46.96542569516235,Tracking,506.8206974289912,1.0,Linear,Windy,High Performance,1
483.11592039528153,30.06071841400665,334.3708658476387,3.354810630123424,-9.324204256381694,16.202801814909225,12.708373508388192,78.29341727398672,Recon,73.31839168092583,0.0,Linear,Foggy,High Performance,2
477.0897276376449,19.86634463221626,154.9928955286933,15.941183713430751,-20.340934098757515,1.7514912597247645,9.292972341805452,74.62548943502054,Object Detection,424.6747044758697,1.0,Random,Rainy,High Performance,7
414.07581725936336,28.83841009738934,42.89064191857734,16.440403721648337,3.78986330723729,12.67699637470648,39.10386893178154,60.46127135052216,Recon,563.5477722374194,1.0,Linear,Foggy,Low Performance,11
496.5311606256882,36.47654530548046,184.46141546355835,11.586061355399366,26.626447220688966,18.29232909030383,9.554612207411026,68.63666065786795,Object Detection,187.94104521603845,0.0,Random,Windy,Moderate Performance,5
317.7929331201052,40.04708547816171,125.57948668510684,-21.050876831642228,-29.770182569980644,4.17303826316862,-6.00087586016226,1.8355724379141791,Tracking,434.56281399293,0.0,Random,Clear,Moderate Performance,7
485.1073401012824,40.15472330839652,134.93697276599917,-41.489422131346366,-15.712509404760077,13.305456724738216,-5.508712371395799,31.1777646805022,Surveillance,586.5550265941082,1.0,Random,Foggy,High Performance,4
130.2420162467003,33.115644507763534,223.67902469605465,-3.998989620890207,26.30685842462446,1.5739715341501892,19.53768606765324,63.78221792594102,Object Detection,579.6301524823301,1.0,Circular,Foggy,Moderate Performance,7
246.2722993045485,46.17439099975429,258.73852077439284,35.18764962216335,-19.73484198857028,12.07510287675226,19.96817758691328,0.93449534862442,Surveillance,186.86176423573733,0.0,Random,Windy,Moderate Performance,7
190.15250720270632,42.696313892244376,39.81729559433791,6.254753266671834,-23.205392901610807,3.278634419064055,10.937949524132748,3.2976943682593407,Surveillance,114.17876873451708,0.0,Random,Windy,Low Performance,8
178.33323365370802,40.28192458794501,12.8124830903315,29.915193753171707,4.211232947988265,14.71907121030356,11.592184615601482,85.18879824703832,Surveillance,140.0725704637946,1.0,Circular,Foggy,Low Performance,11
156.32117955707042,12.224220867218424,357.95890896685734,44.24619086651053,21.7106293976898,6.024625895878164,-7.303370857956439,68.40248616920718,Surveillance,439.0992609803568,1.0,Random,Rainy,Low Performance,13
348.9654566263987,10.275118488785973,83.78220560959866,-30.27454162755513,-1.373410938364433,9.267820176092926,15.827325519463113,26.536973312034394,Object Detection,451.9097927447688,1.0,Linear,Foggy,Low Performance,12
412.528742298922,18.49789108781892,19.378988967045267,17.25998752277841,29.673855401071485,11.988610840552434,15.236973769017585,68.7962840118709,Tracking,424.0877432792275,1.0,Linear,Windy,High Performance,1
331.3193597681443,36.54094375653809,68.3551184745312,15.68642163300222,10.750301972279573,3.425468213324792,-2.522534072152773,79.24566691392633,Recon,241.4823293808085,1.0,Random,Clear,Low Performance,8
158.78508383528387,26.44789955530183,14.024824685447118,43.19599026224506,-25.55550556737313,14.832756372352415,-4.808030694453621,30.679428311010128,Object Detection,151.67954746938597,1.0,Circular,Clear,Moderate Performance,10
424.44950797338834,26.09625037197247,141.0519220621818,43.70406605575204,29.56992790091852,6.052806812736291,-3.821375470025475,3.603737749918745,Tracking,373.6109896542167,0.0,Linear,Rainy,High Performance,4
354.38188286549143,45.38347552918455,288.8646424024768,16.80107505517165,-5.526345793188575,13.24743719825507,-4.948587675437074,93.27791246877344,Recon,321.18744070924794,0.0,Circular,Foggy,Moderate Performance,8
255.2662824507982,45.82251392527355,122.84800191277942,-23.07466872160252,-12.755847969271048,3.165661013987473,20.48540977683799,34.51798382956305,Surveillance,453.5704394460439,1.0,Circular,Clear,Moderate Performance,7
369.6521182144252,46.36701056214343,159.90602647621196,26.87002543175392,3.472751014673136,13.762353184127004,-0.1758673798540684,10.648176328470637,Recon,298.3344424902356,1.0,Linear,Foggy,Moderate Performance,10
203.9619916971332,22.55512306060109,243.211238484278,-35.36737792100657,-11.74154449074814,2.563761456209235,2.571507609373173,49.18568713931474,Recon,242.86543513069293,1.0,Circular,Windy,Low Performance,14
238.0768833976842,37.64223250957047,183.2018652251569,25.262937375446583,-24.81254957279086,8.507129925399672,-1.3213927924280142,76.84677956641337,Tracking,218.47843177386773,1.0,Linear,Clear,Low Performance,13
466.9943372527961,20.865327250974783,310.12044696767674,36.91765117302268,-29.9142994152494,4.944121474777536,37.89176522242515,22.16473146175592,Recon,174.19397282686313,1.0,Circular,Rainy,High Performance,4
216.2018022685681,17.62439332297799,311.77284301647234,-10.544994470840829,-3.0249988247842623,14.96750498856365,32.73087315759177,26.949005013336336,Surveillance,203.5030431407972,1.0,Linear,Windy,High Performance,3
287.99530726317465,17.38529829389477,3.567850376815312,11.75717654847724,20.21180533359553,5.240700090137491,1.5247418675760436,24.27149867985832,Object Detection,111.20843697581472,1.0,Random,Rainy,Low Performance,14
456.0564549584059,23.68430483454376,280.0966703339517,-6.287154111285631,4.338911137804594,17.634346127907925,6.378314696106301,99.16730528316782,Object Detection,247.3027859016004,0.0,Linear,Windy,Moderate Performance,5
383.088540107011,27.198304791192868,165.8640960870026,-5.601145051068443,29.95243793660645,17.836404228132256,0.4946421152498583,19.74037337305425,Tracking,79.74769867599743,0.0,Linear,Clear,High Performance,2
124.88129046588112,43.23796684220274,355.9825948693187,-17.066619980269195,-12.789201261168005,3.928826304455717,14.593797973041188,57.5520216966124,Surveillance,160.66347746981648,1.0,Linear,Rainy,Low Performance,15
158.92121771158813,14.795643738908485,173.96354731515666,23.591665840529217,-13.17269611439668,12.276918900154485,-9.01947337628732,92.52646416569644,Surveillance,463.2560400944917,0.0,Linear,Rainy,Low Performance,12
103.13663630876673,39.39703389579577,355.2825403397871,39.25589077498546,-20.415032385963347,1.7543528343992865,23.56840044483979,14.689656887777923,Recon,235.75325388537624,1.0,Circular,Windy,Low Performance,8
352.36871609166536,31.258196567572213,271.6449700340652,39.6675773311015,-20.15618470407989,7.830741992032584,16.15790749088208,97.08541978677002,Tracking,420.84798916776566,1.0,Random,Rainy,Moderate Performance,8
279.06937016416737,21.5178137070397,89.49775846079028,-29.269684361255955,-12.888804239397132,14.266434590025446,34.931946415055165,94.74772343956246,Surveillance,447.1174548225298,1.0,Linear,Windy,Low Performance,12
153.7099403609102,29.712783381312985,193.8221925433048,33.72692846909095,17.57040271641163,13.188464936998326,-1.7803657835792936,88.45719870582626,Surveillance,373.8400850753413,1.0,Circular,Windy,Low Performance,9
483.1736484227082,21.997682791080905,357.1688302122898,21.368829728440986,24.345407438186875,12.49401338813216,30.205462303056585,21.455652133000225,Surveillance,577.6967803373152,1.0,Random,Windy,Low Performance,9
311.86388957824795,33.843278209532244,308.7110187906925,-22.244633937873967,28.50523018246088,5.650817273248872,29.59805072333579,63.405505601098334,Object Detection,71.57752797648116,1.0,Random,Windy,Low Performance,10
196.75731764515567,27.353756914209768,35.0520817648396,-38.944384837063694,-16.062620754212844,7.560498988688041,-3.640940539155654,76.08914729612401,Object Detection,458.8724313175968,1.0,Random,Clear,High Performance,5
300.24142846188306,16.57622116315515,254.2939188515986,-20.88024598040598,22.877852736845497,2.058922894005724,9.92796120720638,98.60279281964296,Object Detection,577.7447877278204,1.0,Random,Windy,High Performance,3
371.84813309404313,14.663322982227868,124.40865091349268,37.0987413103373,-10.304694643359776,14.38045640867202,-1.4923679427741554,18.04238220813704,Recon,525.6267338505872,1.0,Linear,Foggy,Low Performance,8
130.49568718942578,31.867827282885205,2.5136142769253222,11.986080740619506,-23.22956732898693,10.077775935825471,2.736025022877445,76.60258995192964,Recon,150.6620535747072,1.0,Linear,Rainy,Moderate Performance,10
209.8815260191568,46.09652133144414,145.25314884971985,19.89491948080847,22.201495531209936,14.175312646913092,3.1623087415272177,33.880116992711294,Recon,236.4829653759353,1.0,Circular,Foggy,High Performance,6
422.7861963535975,23.75830746230742,84.51159182098966,-21.856288400181374,8.166338078617116,4.978870495937455,17.811819701288638,17.56264655680023,Surveillance,153.1239935332913,1.0,Circular,Clear,Low Performance,13
283.86594816106447,39.320004288904926,294.79293738736976,19.744934001733824,-20.1161462351363,6.488764572701324,10.570546588023277,42.13769412138549,Object Detection,384.7065164599402,1.0,Circular,Foggy,High Performance,5
318.63085681291795,36.346454197590674,121.43901918447555,-42.46906443498686,-4.210124549219849,6.684306745202293,37.38664020031527,79.38359121486164,Surveillance,444.58151026892585,1.0,Random,Rainy,High Performance,6
273.1264008837877,47.26219657237924,297.9085298233741,-11.221078880428756,-12.76453830737594,0.514848194944324,-3.681492902649744,46.48498037040522,Surveillance,231.21983545605144,0.0,Random,Foggy,Moderate Performance,5
117.55997705720203,42.83924069196564,0.215257980526311,11.407801368809809,14.20767412261182,6.82095745661247,38.68460674250994,53.75231002030485,Tracking,351.3335499515196,1.0,Linear,Clear,Low Performance,10
166.2999119280624,32.66421035621852,110.81489400940288,-31.85130910128118,-2.795026162543916,16.06609147036067,1.5319320107131968,99.51594102001212,Surveillance,433.0971078384453,0.0,Random,Windy,Low Performance,12
278.21665549675635,36.28121992936429,86.8194771507943,29.070321700224127,29.356796706383093,17.94596991499477,28.643696819092654,39.9109299557426,Recon,287.5235009699661,0.0,Random,Foggy,Moderate Performance,7
183.6741861631712,45.9354586633614,84.08424998469995,-23.84718310692732,-26.71530106442429,10.364366312718548,6.948496308641069,61.54007547092398,Object Detection,521.168386445948,1.0,Random,Clear,Moderate Performance,9
119.9916114638715,25.98075138347739,24.54718311556657,13.70530015366016,-8.699084031825201,9.110033904384403,-2.8459302291343045,36.52442016153719,Object Detection,476.6369650554212,1.0,Circular,Clear,Low Performance,10
437.4598656207295,23.071788234311093,67.36473734778062,-8.532257168220326,-1.0859899734013538,0.6164923739874051,32.894459262312,39.27856463287049,Surveillance,94.91939367930816,1.0,Circular,Rainy,Low Performance,9
492.47701166564633,10.432443345407854,199.9978451588232,8.643923592988244,0.1880132848991849,17.584086751707652,5.44304496182316,69.56407534454081,Recon,395.40766150904767,0.0,Linear,Rainy,Moderate Performance,7
417.2571495986958,43.06204296765857,104.88998622158802,-35.32945026339827,-11.043850656861792,0.2602042685174544,22.942770211342108,93.78869760948837,Recon,187.0757975182648,1.0,Random,Foggy,High Performance,6
441.5139686818668,42.039228016134594,150.26212163849326,-43.47784800705534,13.75441494585408,18.89500160420424,18.32218425433133,54.23589504923214,Recon,361.0598629203287,0.0,Random,Windy,High Performance,2
196.79085212681807,14.178180724006054,135.67207692498786,36.8607984642271,22.484824409338486,9.784324973761812,13.587815469543717,76.83999289487798,Object Detection,576.7197590218018,0.0,Linear,Clear,Moderate Performance,7
484.2507902052799,33.07429524530801,315.32577299996206,-20.733299210953547,26.323158118671785,6.838689871494532,14.790973632426956,8.920655881696382,Recon,534.6934824582152,0.0,Random,Foggy,High Performance,5
178.77028178137135,28.559267926675496,325.9076396437856,28.77093025024132,18.30560260797157,18.484368696853203,26.611895704614376,21.115803743192696,Recon,278.43885768217115,0.0,Random,Clear,Moderate Performance,9
480.5719241447329,14.748363820364458,177.4645097961096,44.94152704249802,21.034811838395967,0.4878198622019347,-5.611354293827971,50.213164091953246,Surveillance,217.41748350595083,1.0,Circular,Clear,High Performance,5
497.9277175863804,49.22272908242894,118.85614211361758,-25.971186780097995,3.0327180371997287,11.628497897381742,23.40903309789526,2.001172362877479,Tracking,186.57910198045988,0.0,Linear,Windy,High Performance,4
384.6891222984195,18.58783549853422,38.448253440850905,-21.134633293497995,19.55329358560888,10.978650489986752,34.79060506992894,25.28549787625588,Recon,347.5580296685208,1.0,Linear,Windy,Low Performance,8
492.4574927167288,12.689367203622446,343.2250365775542,14.657380887119912,-11.789765451122868,4.3864080242276415,-7.110590149006793,51.74012898249661,Surveillance,121.6941647593504,1.0,Linear,Foggy,Low Performance,12
